[
  {
    "subject_id": "366580",
    "relocation_latitude": -72.5,
    "relocation_longitude": 177.5,
    "hf_total_v3": 24.6006,
    "hf_aspects": 18.7325,
    "hf_angles": 4.3553,
    "hf_houses": 10.85,
    "asc_lon": 49.0438,
    "mc_lon": 47.7079,
    "city": "McMurdo Station",
    "country": "Antarctica",
    "city_lat": -77.846,
    "city_lon": 166.676,
    "distance_km": 667.05,
    "country_code": "AQ"
  },
  {
    "subject_id": "366580",
    "relocation_latitude": -47.5,
    "relocation_longitude": 177.5,
    "hf_total_v3": 23.764,
    "hf_aspects": 17.876,
    "hf_angles": 4.3634,
    "hf_houses": 10.9,
    "asc_lon": 107.1256,
    "mc_lon": 47.7079,
    "city": "Portobello",
    "country": "New Zealand",
    "city_lat": -45.85,
    "city_lon": 170.65,
    "distance_km": 553.66,
    "country_code": "NZ"
  },
  {
    "subject_id": "366580",
    "relocation_latitude": -45.0,
    "relocation_longitude": 177.5,
    "hf_total_v3": 23.6769,
    "hf_aspects": 17.8505,
    "hf_angles": 4.4357,
    "hf_houses": 10.55,
    "asc_lon": 109.7862,
    "mc_lon": 47.7079,
    "city": "Christchurch",
    "country": "New Zealand",
    "city_lat": -43.53333,
    "city_lon": 172.63333,
    "distance_km": 420.35,
    "country_code": "NZ"
  },
  {
    "subject_id": "366580",
    "relocation_latitude": -47.5,
    "relocation_longitude": -180.0,
    "hf_total_v3": 23.4347,
    "hf_aspects": 17.6324,
    "hf_angles": 4.3954,
    "hf_houses": 10.55,
    "asc_lon": 109.9815,
    "mc_lon": 50.1876,
    "city": "Waitangi",
    "country": "New Zealand",
    "city_lat": -43.95353,
    "city_lon": -176.55973,
    "distance_km": 476.15,
    "country_code": "NZ"
  },
  {
    "subject_id": "366580",
    "relocation_latitude": 27.5,
    "relocation_longitude": -180.0,
    "hf_total_v3": 23.3201,
    "hf_aspects": 18.3692,
    "hf_angles": 3.1764,
    "hf_houses": 10.15,
    "asc_lon": 142.8061,
    "mc_lon": 50.1876,
    "city": "Utrik",
    "country": "Marshall Islands",
    "city_lat": 11.22778,
    "city_lon": 169.84739,
    "distance_km": 2097.0,
    "country_code": "MH"
  },
  {
    "subject_id": "366580",
    "relocation_latitude": 35.0,
    "relocation_longitude": 177.5,
    "hf_total_v3": 23.3136,
    "hf_aspects": 18.3411,
    "hf_angles": 3.2125,
    "hf_houses": 10.15,
    "asc_lon": 142.8732,
    "mc_lon": 47.7079,
    "city": "Unalaska",
    "country": "United States",
    "city_lat": 53.87361,
    "city_lon": -166.53667,
    "distance_km": 2439.01,
    "country_code": "US"
  },
  {
    "subject_id": "366580",
    "relocation_latitude": 30.0,
    "relocation_longitude": -180.0,
    "hf_total_v3": 23.3061,
    "hf_aspects": 18.3775,
    "hf_angles": 3.1143,
    "hf_houses": 10.2,
    "asc_lon": 143.4987,
    "mc_lon": 50.1876,
    "city": "Kekaha",
    "country": "United States",
    "city_lat": 21.96686,
    "city_lon": -159.71186,
    "distance_km": 2211.43,
    "country_code": "US"
  },
  {
    "subject_id": "366580",
    "relocation_latitude": -25.0,
    "relocation_longitude": 97.5,
    "hf_total_v3": 23.2877,
    "hf_aspects": 18.4295,
    "hf_angles": 3.1221,
    "hf_houses": 9.95,
    "asc_lon": 49.2204,
    "mc_lon": 322.893,
    "city": "West Island",
    "country": "Cocos Islands",
    "city_lat": -12.15681,
    "city_lon": 96.82251,
    "distance_km": 1429.87,
    "country_code": "CC"
  },
  {
    "subject_id": "366580",
    "relocation_latitude": -27.5,
    "relocation_longitude": 97.5,
    "hf_total_v3": 23.2774,
    "hf_aspects": 18.4113,
    "hf_angles": 3.1351,
    "hf_houses": 9.95,
    "asc_lon": 48.3679,
    "mc_lon": 322.893,
    "city": "Carnarvon",
    "country": "Australia",
    "city_lat": -24.88073,
    "city_lon": 113.6594,
    "distance_km": 1637.19,
    "country_code": "AU"
  },
  {
    "subject_id": "366580",
    "relocation_latitude": -30.0,
    "relocation_longitude": 97.5,
    "hf_total_v3": 23.1779,
    "hf_aspects": 18.3086,
    "hf_angles": 3.1404,
    "hf_houses": 9.95,
    "asc_lon": 47.4991,
    "mc_lon": 322.893,
    "city": "Kalbarri",
    "country": "Australia",
    "city_lat": -27.7105,
    "city_lon": 114.16505,
    "distance_km": 1641.31,
    "country_code": "AU"
  },
  {
    "subject_id": "366580",
    "relocation_latitude": -42.5,
    "relocation_longitude": 177.5,
    "hf_total_v3": 23.1597,
    "hf_aspects": 17.3357,
    "hf_angles": 4.4316,
    "hf_houses": 10.55,
    "asc_lon": 112.1489,
    "mc_lon": 47.7079,
    "city": "Waipawa",
    "country": "New Zealand",
    "city_lat": -41.41222,
    "city_lon": 175.51528,
    "distance_km": 203.87,
    "country_code": "NZ"
  },
  {
    "subject_id": "366580",
    "relocation_latitude": 20.0,
    "relocation_longitude": -180.0,
    "hf_total_v3": 23.128,
    "hf_aspects": 18.0689,
    "hf_angles": 3.3569,
    "hf_houses": 10.15,
    "asc_lon": 140.7754,
    "mc_lon": 50.1876,
    "city": "Mejit",
    "country": "Marshall Islands",
    "city_lat": 10.27531,
    "city_lon": 170.86461,
    "distance_km": 1458.71,
    "country_code": "MH"
  },
  {
    "subject_id": "366580",
    "relocation_latitude": -32.5,
    "relocation_longitude": 97.5,
    "hf_total_v3": 23.0769,
    "hf_aspects": 18.1042,
    "hf_angles": 3.1379,
    "hf_houses": 10.3,
    "asc_lon": 46.6108,
    "mc_lon": 322.893,
    "city": "Yallingup",
    "country": "Australia",
    "city_lat": -33.64592,
    "city_lon": 115.03514,
    "distance_km": 1636.9,
    "country_code": "AU"
  },
  {
    "subject_id": "366580",
    "relocation_latitude": -35.0,
    "relocation_longitude": 100.0,
    "hf_total_v3": 23.0038,
    "hf_aspects": 18.1086,
    "hf_angles": 3.1837,
    "hf_houses": 9.95,
    "asc_lon": 47.7408,
    "mc_lon": 325.4703,
    "city": "Margaret River",
    "country": "Australia",
    "city_lat": -33.9536,
    "city_lon": 115.07391,
    "distance_km": 1385.3,
    "country_code": "AU"
  },
  {
    "subject_id": "366580",
    "relocation_latitude": 72.5,
    "relocation_longitude": 0.0,
    "hf_total_v3": 23.0026,
    "hf_aspects": 18.414,
    "hf_angles": 2.2227,
    "hf_houses": 10.85,
    "asc_lon": 49.0482,
    "mc_lon": 230.1876,
    "city": "Olonkinbyen",
    "country": "Svalbard",
    "city_lat": 70.9221,
    "city_lon": -8.7187,
    "distance_km": 350.73,
    "country_code": "SJ"
  },
  {
    "subject_id": "366580",
    "relocation_latitude": -37.5,
    "relocation_longitude": 100.0,
    "hf_total_v3": 22.9747,
    "hf_aspects": 17.975,
    "hf_angles": 3.1829,
    "hf_houses": 10.3,
    "asc_lon": 46.7647,
    "mc_lon": 325.4703,
    "city": "Augusta",
    "country": "Australia",
    "city_lat": -34.31566,
    "city_lon": 115.15922,
    "distance_km": 1408.69,
    "country_code": "AU"
  },
  {
    "subject_id": "366580",
    "relocation_latitude": -42.5,
    "relocation_longitude": 175.0,
    "hf_total_v3": 22.9574,
    "hf_aspects": 17.1023,
    "hf_angles": 4.4086,
    "hf_houses": 10.7,
    "asc_lon": 109.3436,
    "mc_lon": 45.2096,
    "city": "Kaikoura",
    "country": "New Zealand",
    "city_lat": -42.40749,
    "city_lon": 173.68132,
    "distance_km": 108.67,
    "country_code": "NZ"
  },
  {
    "subject_id": "366580",
    "relocation_latitude": -67.5,
    "relocation_longitude": -27.5,
    "hf_total_v3": 22.9115,
    "hf_aspects": 18.5994,
    "hf_angles": 1.9119,
    "hf_houses": 10.55,
    "asc_lon": 323.7244,
    "mc_lon": 201.8979,
    "city": "Grytviken",
    "country": "South Georgia",
    "city_lat": -54.28111,
    "city_lon": -36.5092,
    "distance_km": 1544.79,
    "country_code": "GS"
  },
  {
    "subject_id": "366580",
    "relocation_latitude": 75.0,
    "relocation_longitude": -82.5,
    "hf_total_v3": 22.9047,
    "hf_aspects": 18.5708,
    "hf_angles": 1.9731,
    "hf_houses": 10.5,
    "asc_lon": 202.245,
    "mc_lon": 142.893,
    "city": "Clyde River",
    "country": "Canada",
    "city_lat": 70.46916,
    "city_lon": -68.59143,
    "distance_km": 678.28,
    "country_code": "CA"
  },
  {
    "subject_id": "366580",
    "relocation_latitude": 77.5,
    "relocation_longitude": 100.0,
    "hf_total_v3": 22.8313,
    "hf_aspects": 18.4709,
    "hf_angles": 1.9924,
    "hf_houses": 10.55,
    "asc_lon": 327.076,
    "mc_lon": 325.4703,
    "city": "Khatanga",
    "country": "Russia",
    "city_lat": 71.98002,
    "city_lon": 102.47111,
    "distance_km": 617.9,
    "country_code": "RU"
  }
]