[
  {
    "subject_id": 1000,
    "relocation_latitude": 70.0,
    "relocation_longitude": 90.0,
    "hf_total_v3": 25.77327414656579,
    "hf_total_v3_norm": 3.4485384944433464,
    "hf_aspects": 20.554781812295193,
    "hf_angles": 3.6974872237843273,
    "hf_houses": 10.0,
    "asc_lon": 150.41968998641477,
    "mc_lon": 31.238360422577873,
    "city": "Moscow",
    "country": "Russia",
    "city_lat": 55.7558,
    "city_lon": 37.6173,
    "distance_km": 2956.142929419241
  },
  {
    "subject_id": 1000,
    "relocation_latitude": 70.0,
    "relocation_longitude": -145.0,
    "hf_total_v3": 25.361022043397888,
    "hf_total_v3_norm": 3.257648086923345,
    "hf_aspects": 20.40847180165776,
    "hf_angles": 2.9292504029002115,
    "hf_houses": 10.650000000000002,
    "asc_lon": 211.0479417580781,
    "mc_lon": 152.1010746515596,
    "city": "Vancouver",
    "country": "Canada",
    "city_lat": 49.2827,
    "city_lon": -123.1207,
    "distance_km": 2577.5934184993184
  },
  {
    "subject_id": 1000,
    "relocation_latitude": -45.0,
    "relocation_longitude": 90.0,
    "hf_total_v3": 24.96627584622547,
    "hf_total_v3_norm": 3.074863664803554,
    "hf_aspects": 20.12318562500912,
    "hf_angles": 2.846817035360587,
    "hf_houses": 10.45,
    "asc_lon": 93.1517036593019,
    "mc_lon": 31.238360422577873,
    "city": "Melbourne",
    "country": "Australia",
    "city_lat": -37.8136,
    "city_lon": 144.9631,
    "distance_km": 4563.648522528376
  },
  {
    "subject_id": 1000,
    "relocation_latitude": -50.0,
    "relocation_longitude": 90.0,
    "hf_total_v3": 24.92404691643789,
    "hf_total_v3_norm": 3.055309858881546,
    "hf_aspects": 19.934951429338017,
    "hf_angles": 2.740159145166458,
    "hf_houses": 11.15,
    "asc_lon": 88.15201141374689,
    "mc_lon": 31.238360422577873,
    "city": "Melbourne",
    "country": "Australia",
    "city_lat": -37.8136,
    "city_lon": 144.9631,
    "distance_km": 4495.67393968947
  },
  {
    "subject_id": 1000,
    "relocation_latitude": -80.0,
    "relocation_longitude": -145.0,
    "hf_total_v3": 24.349108366272308,
    "hf_total_v3_norm": 2.789088647887826,
    "hf_aspects": 17.863934135184017,
    "hf_angles": 5.808623718480485,
    "hf_houses": 10.0,
    "asc_lon": 154.1441981528409,
    "mc_lon": 152.1010746515596,
    "city": "Auckland",
    "country": "New Zealand",
    "city_lat": -36.8485,
    "city_lon": 174.7633,
    "distance_km": 5097.143308183221
  },
  {
    "subject_id": 1000,
    "relocation_latitude": 65.0,
    "relocation_longitude": -145.0,
    "hf_total_v3": 24.08701152919987,
    "hf_total_v3_norm": 2.667726569552754,
    "hf_aspects": 19.20946166202545,
    "hf_angles": 2.929249778624033,
    "hf_houses": 10.4,
    "asc_lon": 215.64703588935924,
    "mc_lon": 152.1010746515596,
    "city": "Vancouver",
    "country": "Canada",
    "city_lat": 49.2827,
    "city_lon": -123.1207,
    "distance_km": 2166.178752095288
  },
  {
    "subject_id": 1000,
    "relocation_latitude": 75.0,
    "relocation_longitude": 90.0,
    "hf_total_v3": 24.04801518306411,
    "hf_total_v3_norm": 2.649669588524777,
    "hf_aspects": 18.902762391540925,
    "hf_angles": 3.575421319205307,
    "hf_houses": 10.0,
    "asc_lon": 155.65494595810307,
    "mc_lon": 31.238360422577873,
    "city": "Helsinki",
    "country": "Finland",
    "city_lat": 60.1699,
    "city_lon": 24.9384,
    "distance_km": 2985.0623946908036
  },
  {
    "subject_id": 1000,
    "relocation_latitude": 65.0,
    "relocation_longitude": 90.0,
    "hf_total_v3": 24.0449071792073,
    "hf_total_v3_norm": 2.648230449419746,
    "hf_aspects": 18.889128815411965,
    "hf_angles": 3.4679639396588917,
    "hf_houses": 10.25,
    "asc_lon": 146.08159352686926,
    "mc_lon": 31.238360422577873,
    "city": "Moscow",
    "country": "Russia",
    "city_lat": 55.7558,
    "city_lon": 37.6173,
    "distance_km": 2954.9173146913363
  },
  {
    "subject_id": 1000,
    "relocation_latitude": -70.0,
    "relocation_longitude": 35.0,
    "hf_total_v3": 24.028128586403966,
    "hf_total_v3_norm": 2.640461241225953,
    "hf_aspects": 20.408471801657768,
    "hf_angles": 0.8077613079103286,
    "hf_houses": 10.450000000000001,
    "asc_lon": 31.047941758078117,
    "mc_lon": 332.1010746515596,
    "city": "Cape Town",
    "country": "South Africa",
    "city_lat": -33.9249,
    "city_lon": 18.4241,
    "distance_km": 4137.272539172872
  },
  {
    "subject_id": 1000,
    "relocation_latitude": 65.0,
    "relocation_longitude": -150.0,
    "hf_total_v3": 23.833558349825005,
    "hf_total_v3_norm": 2.5503668755055338,
    "hf_aspects": 19.027735671158286,
    "hf_angles": 2.734704464444535,
    "hf_houses": 10.55,
    "asc_lon": 212.932257962389,
    "mc_lon": 146.87378612388397,
    "city": "Vancouver",
    "country": "Canada",
    "city_lat": 49.2827,
    "city_lon": -123.1207,
    "distance_km": 2348.4831000609424
  },
  {
    "subject_id": 1000,
    "relocation_latitude": 70.0,
    "relocation_longitude": -150.0,
    "hf_total_v3": 23.77402615846078,
    "hf_total_v3_norm": 2.52280091724177,
    "hf_aspects": 19.04320225778208,
    "hf_angles": 2.734706501131168,
    "hf_houses": 10.299999999999999,
    "asc_lon": 208.73984623052093,
    "mc_lon": 146.87378612388397,
    "city": "Vancouver",
    "country": "Canada",
    "city_lat": 49.2827,
    "city_lon": -123.1207,
    "distance_km": 2704.6753832536424
  },
  {
    "subject_id": 1000,
    "relocation_latitude": 70.0,
    "relocation_longitude": 95.0,
    "hf_total_v3": 23.739739430969774,
    "hf_total_v3_norm": 2.506924691667682,
    "hf_aspects": 18.69745163147204,
    "hf_angles": 3.4038129991628914,
    "hf_houses": 10.0,
    "asc_lon": 152.74585851213467,
    "mc_lon": 36.420690737704746,
    "city": "Moscow",
    "country": "Russia",
    "city_lat": 55.7558,
    "city_lon": 37.6173,
    "distance_km": 3146.032566070611
  },
  {
    "subject_id": 1000,
    "relocation_latitude": 70.0,
    "relocation_longitude": 85.0,
    "hf_total_v3": 23.68961670672631,
    "hf_total_v3_norm": 2.48371572030447,
    "hf_aspects": 18.2755603066391,
    "hf_angles": 3.7984273334786787,
    "hf_houses": 10.450000000000001,
    "asc_lon": 148.1223601736084,
    "mc_lon": 25.986539925346737,
    "city": "Moscow",
    "country": "Russia",
    "city_lat": 55.7558,
    "city_lon": 37.6173,
    "distance_km": 2767.76266998527
  },
  {
    "subject_id": 1000,
    "relocation_latitude": 80.0,
    "relocation_longitude": -90.0,
    "hf_total_v3": 23.615778606284803,
    "hf_total_v3_norm": 2.4495255124790383,
    "hf_aspects": 19.916912377151576,
    "hf_angles": 0.9897770485553768,
    "hf_houses": 10.35,
    "asc_lon": 25.75970362196415,
    "mc_lon": 211.23836042257787,
    "city": "Reykjavik",
    "country": "Iceland",
    "city_lat": 64.1466,
    "city_lon": -21.9426,
    "distance_km": 2653.1051739732166
  },
  {
    "subject_id": 1000,
    "relocation_latitude": 15.0,
    "relocation_longitude": 90.0,
    "hf_total_v3": 23.58730237818736,
    "hf_total_v3_norm": 2.4363397973683516,
    "hf_aspects": 18.55521148785627,
    "hf_angles": 3.186818150551816,
    "hf_houses": 10.4,
    "asc_lon": 122.31370743323703,
    "mc_lon": 31.238360422577873,
    "city": "Bangkok",
    "country": "Thailand",
    "city_lat": 13.7563,
    "city_lon": 100.5018,
    "distance_km": 1139.4692713282016
  },
  {
    "subject_id": 1000,
    "relocation_latitude": 10.0,
    "relocation_longitude": -145.0,
    "hf_total_v3": 23.570715767782627,
    "hf_total_v3_norm": 2.4286594852602885,
    "hf_aspects": 18.63316591817363,
    "hf_angles": 2.929249749348324,
    "hf_houses": 10.599999999999998,
    "asc_lon": 242.36298691541344,
    "mc_lon": 152.1010746515596,
    "city": "Los Angeles",
    "country": "USA",
    "city_lat": 34.0522,
    "city_lon": -118.2437,
    "distance_km": 3817.22932520806
  },
  {
    "subject_id": 1000,
    "relocation_latitude": -70.0,
    "relocation_longitude": -90.0,
    "hf_total_v3": 23.54961350759327,
    "hf_total_v3_norm": 2.4188882336009647,
    "hf_aspects": 20.554781812295193,
    "hf_angles": 0.01638615883012865,
    "hf_houses": 9.950000000000001,
    "asc_lon": 330.41968998641477,
    "mc_lon": 211.23836042257787,
    "city": "Santiago",
    "country": "Chile",
    "city_lat": -33.4489,
    "city_lon": -70.6693,
    "distance_km": 4233.400354466862
  },
  {
    "subject_id": 1000,
    "relocation_latitude": 5.0,
    "relocation_longitude": -145.0,
    "hf_total_v3": 23.52425511091187,
    "hf_total_v3_norm": 2.407146208176791,
    "hf_aspects": 18.58670523673557,
    "hf_angles": 2.9292497902938344,
    "hf_houses": 10.599999999999998,
    "asc_lon": 244.15878375212822,
    "mc_lon": 152.1010746515596,
    "city": "Los Angeles",
    "country": "USA",
    "city_lat": 34.0522,
    "city_lon": -118.2437,
    "distance_km": 4248.188015553284
  },
  {
    "subject_id": 1000,
    "relocation_latitude": -80.0,
    "relocation_longitude": 90.0,
    "hf_total_v3": 23.47941602043352,
    "hf_total_v3_norm": 2.3863837858908514,
    "hf_aspects": 19.916912377151597,
    "hf_angles": 0.7875060721365369,
    "hf_houses": 10.299999999999999,
    "asc_lon": 205.75970362196418,
    "mc_lon": 31.238360422577873,
    "city": "Melbourne",
    "country": "Australia",
    "city_lat": -37.8136,
    "city_lon": 144.9631,
    "distance_km": 5221.458938729385
  },
  {
    "subject_id": 1000,
    "relocation_latitude": 20.0,
    "relocation_longitude": 90.0,
    "hf_total_v3": 23.478437486106888,
    "hf_total_v3_norm": 2.3859306825229183,
    "hf_aspects": 18.42233095184246,
    "hf_angles": 3.226844223774039,
    "hf_houses": 10.4,
    "asc_lon": 124.06806214944307,
    "mc_lon": 31.238360422577873,
    "city": "Bangkok",
    "country": "Thailand",
    "city_lat": 13.7563,
    "city_lon": 100.5018,
    "distance_km": 1314.8451747585934
  }
]