[
  {
    "subject_id": "35255",
    "relocation_latitude": -67.5,
    "relocation_longitude": -45.0,
    "hf_total_v3": 25.323,
    "hf_aspects": 18.4252,
    "hf_angles": 6.2962,
    "hf_houses": 10.4,
    "asc_lon": 106.0623,
    "mc_lon": 103.9068,
    "city": "Grytviken",
    "country": "South Georgia",
    "city_lat": -54.28111,
    "city_lon": -36.5092,
    "distance_km": 1536.61,
    "country_code": "GS"
  },
  {
    "subject_id": "35255",
    "relocation_latitude": 5.0,
    "relocation_longitude": -137.5,
    "hf_total_v3": 24.4306,
    "hf_aspects": 19.1823,
    "hf_angles": 3.4723,
    "hf_houses": 10.55,
    "asc_lon": 103.5394,
    "mc_lon": 13.6975,
    "city": "Taiohae",
    "country": "French Polynesia",
    "city_lat": -8.91093,
    "city_lon": -140.09972,
    "distance_km": 1573.44,
    "country_code": "PF"
  },
  {
    "subject_id": "35255",
    "relocation_latitude": 67.5,
    "relocation_longitude": 137.5,
    "hf_total_v3": 24.381,
    "hf_aspects": 18.2329,
    "hf_angles": 5.0469,
    "hf_houses": 10.4,
    "asc_lon": 105.9251,
    "mc_lon": 286.2296,
    "city": "Batagay",
    "country": "Russia",
    "city_lat": 67.65653,
    "city_lon": 134.63962,
    "distance_km": 122.55,
    "country_code": "RU"
  },
  {
    "subject_id": "35255",
    "relocation_latitude": 25.0,
    "relocation_longitude": -45.0,
    "hf_total_v3": 24.3112,
    "hf_aspects": 19.2111,
    "hf_angles": 3.1503,
    "hf_houses": 10.7,
    "asc_lon": 193.6707,
    "mc_lon": 103.9068,
    "city": "Codrington",
    "country": "Antigua and Barbuda",
    "city_lat": 17.63333,
    "city_lon": -61.83333,
    "distance_km": 1924.2,
    "country_code": "AG"
  },
  {
    "subject_id": "35255",
    "relocation_latitude": 27.5,
    "relocation_longitude": -45.0,
    "hf_total_v3": 24.3043,
    "hf_aspects": 19.2042,
    "hf_angles": 3.1503,
    "hf_houses": 10.7,
    "asc_lon": 193.4104,
    "mc_lon": 103.9068,
    "city": "Ribeira Grande",
    "country": "Portugal",
    "city_lat": 38.51667,
    "city_lon": -28.7,
    "distance_km": 1946.79,
    "country_code": "PT"
  },
  {
    "subject_id": "35255",
    "relocation_latitude": 22.5,
    "relocation_longitude": -45.0,
    "hf_total_v3": 24.3036,
    "hf_aspects": 19.2035,
    "hf_angles": 3.1503,
    "hf_houses": 10.7,
    "asc_lon": 193.93,
    "mc_lon": 103.9068,
    "city": "Grande Anse",
    "country": "Guadeloupe",
    "city_lat": 16.30351,
    "city_lon": -61.07406,
    "distance_km": 1819.61,
    "country_code": "GP"
  },
  {
    "subject_id": "35255",
    "relocation_latitude": 20.0,
    "relocation_longitude": -45.0,
    "hf_total_v3": 24.2818,
    "hf_aspects": 19.1816,
    "hf_angles": 3.1503,
    "hf_houses": 10.7,
    "asc_lon": 194.1895,
    "mc_lon": 103.9068,
    "city": "Crane",
    "country": "Barbados",
    "city_lat": 13.1,
    "city_lon": -59.45,
    "distance_km": 1719.37,
    "country_code": "BB"
  },
  {
    "subject_id": "35255",
    "relocation_latitude": 17.5,
    "relocation_longitude": -45.0,
    "hf_total_v3": 24.2459,
    "hf_aspects": 19.1458,
    "hf_angles": 3.1503,
    "hf_houses": 10.7,
    "asc_lon": 194.45,
    "mc_lon": 103.9068,
    "city": "Sinnamary",
    "country": "French Guiana",
    "city_lat": 5.38333,
    "city_lon": -52.95,
    "distance_km": 1600.86,
    "country_code": "GF"
  },
  {
    "subject_id": "35255",
    "relocation_latitude": 15.0,
    "relocation_longitude": -45.0,
    "hf_total_v3": 24.1963,
    "hf_aspects": 19.0961,
    "hf_angles": 3.1503,
    "hf_houses": 10.7,
    "asc_lon": 194.7125,
    "mc_lon": 103.9068,
    "city": "Remire-Montjoly",
    "country": "French Guiana",
    "city_lat": 4.91667,
    "city_lon": -52.26667,
    "distance_km": 1374.29,
    "country_code": "GF"
  },
  {
    "subject_id": "35255",
    "relocation_latitude": 37.5,
    "relocation_longitude": -45.0,
    "hf_total_v3": 24.1263,
    "hf_aspects": 19.0261,
    "hf_angles": 3.1503,
    "hf_houses": 10.7,
    "asc_lon": 192.3401,
    "mc_lon": 103.9068,
    "city": "Mount Pearl",
    "country": "Canada",
    "city_lat": 47.51659,
    "city_lon": -52.78135,
    "distance_km": 1281.97,
    "country_code": "CA"
  },
  {
    "subject_id": "35255",
    "relocation_latitude": -45.0,
    "relocation_longitude": -110.0,
    "hf_total_v3": 24.1232,
    "hf_aspects": 19.0323,
    "hf_angles": 3.3348,
    "hf_houses": 10.3,
    "asc_lon": 104.1631,
    "mc_lon": 42.5524,
    "city": "Hanga Roa",
    "country": "Chile",
    "city_lat": -27.15474,
    "city_lon": -109.43241,
    "distance_km": 1984.94,
    "country_code": "CL"
  },
  {
    "subject_id": "35255",
    "relocation_latitude": 50.0,
    "relocation_longitude": -165.0,
    "hf_total_v3": 24.0369,
    "hf_aspects": 18.9046,
    "hf_angles": 3.4787,
    "hf_houses": 10.15,
    "asc_lon": 103.859,
    "mc_lon": 343.8302,
    "city": "Unalaska",
    "country": "United States",
    "city_lat": 53.87361,
    "city_lon": -166.53667,
    "distance_km": 443.39,
    "country_code": "US"
  },
  {
    "subject_id": "35255",
    "relocation_latitude": 7.5,
    "relocation_longitude": -45.0,
    "hf_total_v3": 23.9673,
    "hf_aspects": 18.8671,
    "hf_angles": 3.1503,
    "hf_houses": 10.7,
    "asc_lon": 195.5232,
    "mc_lon": 103.9068,
    "city": "Saint-Georges-de-l'Oyapock",
    "country": "French Guiana",
    "city_lat": 3.9,
    "city_lon": -51.8,
    "distance_km": 852.13,
    "country_code": "GF"
  },
  {
    "subject_id": "35255",
    "relocation_latitude": 42.5,
    "relocation_longitude": -45.0,
    "hf_total_v3": 23.9427,
    "hf_aspects": 18.8426,
    "hf_angles": 3.1503,
    "hf_houses": 10.7,
    "asc_lon": 191.7716,
    "mc_lon": 103.9068,
    "city": "St. John's",
    "country": "Canada",
    "city_lat": 47.56494,
    "city_lon": -52.70931,
    "distance_km": 826.42,
    "country_code": "CA"
  },
  {
    "subject_id": "35255",
    "relocation_latitude": 5.0,
    "relocation_longitude": -45.0,
    "hf_total_v3": 23.8654,
    "hf_aspects": 18.7652,
    "hf_angles": 3.1503,
    "hf_houses": 10.7,
    "asc_lon": 195.8049,
    "mc_lon": 103.9068,
    "city": "Salinopolis",
    "country": "Brazil",
    "city_lat": -0.61361,
    "city_lon": -47.35611,
    "distance_km": 676.84,
    "country_code": "BR"
  },
  {
    "subject_id": "35255",
    "relocation_latitude": 10.0,
    "relocation_longitude": -140.0,
    "hf_total_v3": 23.8582,
    "hf_aspects": 18.5259,
    "hf_angles": 3.6121,
    "hf_houses": 10.55,
    "asc_lon": 103.2112,
    "mc_lon": 10.9922,
    "city": "Leilani Estates",
    "country": "United States",
    "city_lat": 19.4675,
    "city_lon": -154.91722,
    "distance_km": 1916.67,
    "country_code": "US"
  },
  {
    "subject_id": "35255",
    "relocation_latitude": 2.5,
    "relocation_longitude": -45.0,
    "hf_total_v3": 23.7515,
    "hf_aspects": 18.6514,
    "hf_angles": 3.1503,
    "hf_houses": 10.7,
    "asc_lon": 196.0945,
    "mc_lon": 103.9068,
    "city": "Carutapera",
    "country": "Brazil",
    "city_lat": -1.195,
    "city_lon": -46.02,
    "distance_km": 426.23,
    "country_code": "BR"
  },
  {
    "subject_id": "35255",
    "relocation_latitude": -27.5,
    "relocation_longitude": 135.0,
    "hf_total_v3": 23.715,
    "hf_aspects": 19.2042,
    "hf_angles": 2.3181,
    "hf_houses": 10.4,
    "asc_lon": 13.4104,
    "mc_lon": 283.9068,
    "city": "Coober Pedy",
    "country": "Australia",
    "city_lat": -29.01415,
    "city_lon": 134.75495,
    "distance_km": 170.07,
    "country_code": "AU"
  },
  {
    "subject_id": "35255",
    "relocation_latitude": -25.0,
    "relocation_longitude": 135.0,
    "hf_total_v3": 23.7142,
    "hf_aspects": 19.2111,
    "hf_angles": 2.3052,
    "hf_houses": 10.4,
    "asc_lon": 13.6707,
    "mc_lon": 283.9068,
    "city": "Alice Springs",
    "country": "Australia",
    "city_lat": -23.69748,
    "city_lon": 133.88362,
    "distance_km": 183.76,
    "country_code": "AU"
  },
  {
    "subject_id": "35255",
    "relocation_latitude": -32.5,
    "relocation_longitude": 135.0,
    "hf_total_v3": 23.6728,
    "hf_aspects": 19.1458,
    "hf_angles": 2.345,
    "hf_houses": 10.4,
    "asc_lon": 12.8832,
    "mc_lon": 283.9068,
    "city": "Streaky Bay",
    "country": "Australia",
    "city_lat": -32.79554,
    "city_lon": 134.20928,
    "distance_km": 81.0,
    "country_code": "AU"
  }
]