[
  {
    "subject_id": "308660",
    "relocation_latitude": -70.0,
    "relocation_longitude": 82.5,
    "hf_total_v3": 21.9379,
    "hf_aspects": 17.5407,
    "hf_angles": 2.2287,
    "hf_houses": 10.2,
    "asc_lon": 59.2294,
    "mc_lon": 58.9198,
    "city": "Port-aux-Francais",
    "country": "French Southern Territories",
    "city_lat": -49.35,
    "city_lon": 70.21667,
    "distance_km": 2386.62,
    "country_code": "TF"
  },
  {
    "subject_id": "308660",
    "relocation_latitude": -55.0,
    "relocation_longitude": 25.0,
    "hf_total_v3": 21.3967,
    "hf_aspects": 15.9351,
    "hf_angles": 3.8025,
    "hf_houses": 10.6,
    "asc_lon": 59.8235,
    "mc_lon": 359.1197,
    "city": "Bredasdorp",
    "country": "South Africa",
    "city_lat": -34.53215,
    "city_lon": 20.04031,
    "distance_km": 2307.94,
    "country_code": "ZA"
  },
  {
    "subject_id": "308660",
    "relocation_latitude": 70.0,
    "relocation_longitude": -95.0,
    "hf_total_v3": 21.271,
    "hf_aspects": 17.3474,
    "hf_angles": 1.4392,
    "hf_houses": 10.2,
    "asc_lon": 59.1656,
    "mc_lon": 241.3203,
    "city": "Gjoa Haven",
    "country": "Canada",
    "city_lat": 68.62602,
    "city_lon": -95.87836,
    "distance_km": 156.62,
    "country_code": "CA"
  },
  {
    "subject_id": "308660",
    "relocation_latitude": -70.0,
    "relocation_longitude": 85.0,
    "hf_total_v3": 21.0909,
    "hf_aspects": 17.3474,
    "hf_angles": 1.2141,
    "hf_houses": 10.05,
    "asc_lon": 239.1656,
    "mc_lon": 61.3203,
    "city": "McMurdo Station",
    "country": "Antarctica",
    "city_lat": -77.846,
    "city_lon": 166.676,
    "distance_km": 2414.28,
    "country_code": "AQ"
  },
  {
    "subject_id": "308660",
    "relocation_latitude": -55.0,
    "relocation_longitude": 27.5,
    "hf_total_v3": 21.0555,
    "hf_aspects": 15.5396,
    "hf_angles": 3.8932,
    "hf_houses": 10.6,
    "asc_lon": 61.5591,
    "mc_lon": 1.8448,
    "city": "Jeffrey's Bay",
    "country": "South Africa",
    "city_lat": -34.05065,
    "city_lon": 24.9195,
    "distance_km": 2338.03,
    "country_code": "ZA"
  },
  {
    "subject_id": "308660",
    "relocation_latitude": 50.0,
    "relocation_longitude": -32.5,
    "hf_total_v3": 20.0579,
    "hf_aspects": 15.9728,
    "hf_angles": 2.0835,
    "hf_houses": 9.45,
    "asc_lon": 59.7658,
    "mc_lon": 299.5275,
    "city": "Lagoa",
    "country": "Portugal",
    "city_lat": 39.05,
    "city_lon": -27.98333,
    "distance_km": 1268.53,
    "country_code": "PT"
  },
  {
    "subject_id": "308660",
    "relocation_latitude": 52.5,
    "relocation_longitude": -35.0,
    "hf_total_v3": 20.0058,
    "hf_aspects": 15.8899,
    "hf_angles": 2.0597,
    "hf_houses": 9.6,
    "asc_lon": 59.9564,
    "mc_lon": 297.1368,
    "city": "Nanortalik",
    "country": "Greenland",
    "city_lat": 60.14317,
    "city_lon": -45.23715,
    "distance_km": 1056.14,
    "country_code": "GL"
  },
  {
    "subject_id": "308660",
    "relocation_latitude": 50.0,
    "relocation_longitude": -97.5,
    "hf_total_v3": 19.9768,
    "hf_aspects": 16.0285,
    "hf_angles": 1.2304,
    "hf_houses": 10.7,
    "asc_lon": 298.0254,
    "mc_lon": 238.9198,
    "city": "Headingley",
    "country": "Canada",
    "city_lat": 49.8753,
    "city_lon": -97.40896,
    "distance_km": 15.32,
    "country_code": "CA"
  },
  {
    "subject_id": "308660",
    "relocation_latitude": -55.0,
    "relocation_longitude": -60.0,
    "hf_total_v3": 19.846,
    "hf_aspects": 14.6834,
    "hf_angles": 3.2294,
    "hf_houses": 10.75,
    "asc_lon": 2.8214,
    "mc_lon": 273.8471,
    "city": "Stanley",
    "country": "Falkland Islands",
    "city_lat": -51.7,
    "city_lon": -57.85,
    "distance_km": 393.67,
    "country_code": "FK"
  },
  {
    "subject_id": "308660",
    "relocation_latitude": -57.5,
    "relocation_longitude": -60.0,
    "hf_total_v3": 19.8456,
    "hf_aspects": 14.6852,
    "hf_angles": 3.2256,
    "hf_houses": 10.75,
    "asc_lon": 2.7184,
    "mc_lon": 273.8471,
    "city": "Ushuaia",
    "country": "Argentina",
    "city_lat": -54.8,
    "city_lon": -68.3,
    "distance_km": 594.75,
    "country_code": "AR"
  },
  {
    "subject_id": "308660",
    "relocation_latitude": -47.5,
    "relocation_longitude": -60.0,
    "hf_total_v3": 19.8436,
    "hf_aspects": 14.6752,
    "hf_angles": 3.2389,
    "hf_houses": 10.75,
    "asc_lon": 3.1013,
    "mc_lon": 273.8471,
    "city": "Puerto Deseado",
    "country": "Argentina",
    "city_lat": -47.75034,
    "city_lon": -65.89382,
    "distance_km": 442.47,
    "country_code": "AR"
  },
  {
    "subject_id": "308660",
    "relocation_latitude": -45.0,
    "relocation_longitude": -60.0,
    "hf_total_v3": 19.8417,
    "hf_aspects": 14.6717,
    "hf_angles": 3.2415,
    "hf_houses": 10.75,
    "asc_lon": 3.187,
    "mc_lon": 273.8471,
    "city": "Rawson",
    "country": "Argentina",
    "city_lat": -43.30016,
    "city_lon": -65.10228,
    "distance_km": 448.71,
    "country_code": "AR"
  },
  {
    "subject_id": "308660",
    "relocation_latitude": -42.5,
    "relocation_longitude": -60.0,
    "hf_total_v3": 19.8393,
    "hf_aspects": 14.6679,
    "hf_angles": 3.244,
    "hf_houses": 10.75,
    "asc_lon": 3.2697,
    "mc_lon": 273.8471,
    "city": "Viedma",
    "country": "Argentina",
    "city_lat": -40.81345,
    "city_lon": -62.99668,
    "distance_km": 311.66,
    "country_code": "AR"
  },
  {
    "subject_id": "308660",
    "relocation_latitude": -40.0,
    "relocation_longitude": -60.0,
    "hf_total_v3": 19.8365,
    "hf_aspects": 14.6637,
    "hf_angles": 3.2463,
    "hf_houses": 10.75,
    "asc_lon": 3.35,
    "mc_lon": 273.8471,
    "city": "Monte Hermoso",
    "country": "Argentina",
    "city_lat": -38.9825,
    "city_lon": -61.29472,
    "distance_km": 158.57,
    "country_code": "AR"
  },
  {
    "subject_id": "308660",
    "relocation_latitude": -37.5,
    "relocation_longitude": -60.0,
    "hf_total_v3": 19.8332,
    "hf_aspects": 14.6592,
    "hf_angles": 3.2484,
    "hf_houses": 10.75,
    "asc_lon": 3.4283,
    "mc_lon": 273.8471,
    "city": "Benito Juarez",
    "country": "Argentina",
    "city_lat": -37.67188,
    "city_lon": -59.80653,
    "distance_km": 25.61,
    "country_code": "AR"
  },
  {
    "subject_id": "308660",
    "relocation_latitude": -35.0,
    "relocation_longitude": -60.0,
    "hf_total_v3": 19.8295,
    "hf_aspects": 14.6543,
    "hf_angles": 3.2503,
    "hf_houses": 10.75,
    "asc_lon": 3.5048,
    "mc_lon": 273.8471,
    "city": "Chivilcoy",
    "country": "Argentina",
    "city_lat": -34.89566,
    "city_lon": -60.01667,
    "distance_km": 11.7,
    "country_code": "AR"
  },
  {
    "subject_id": "308660",
    "relocation_latitude": -32.5,
    "relocation_longitude": -60.0,
    "hf_total_v3": 19.8254,
    "hf_aspects": 14.6491,
    "hf_angles": 3.2522,
    "hf_houses": 10.75,
    "asc_lon": 3.58,
    "mc_lon": 273.8471,
    "city": "Hernandez",
    "country": "Argentina",
    "city_lat": -32.3373,
    "city_lon": -60.0216,
    "distance_km": 18.2,
    "country_code": "AR"
  },
  {
    "subject_id": "308660",
    "relocation_latitude": -30.0,
    "relocation_longitude": -60.0,
    "hf_total_v3": 19.8208,
    "hf_aspects": 14.6435,
    "hf_angles": 3.2539,
    "hf_houses": 10.75,
    "asc_lon": 3.6542,
    "mc_lon": 273.8471,
    "city": "Calchaqui",
    "country": "Argentina",
    "city_lat": -29.88767,
    "city_lon": -60.28697,
    "distance_km": 30.34,
    "country_code": "AR"
  },
  {
    "subject_id": "308660",
    "relocation_latitude": -27.5,
    "relocation_longitude": -60.0,
    "hf_total_v3": 19.8158,
    "hf_aspects": 14.6375,
    "hf_angles": 3.2555,
    "hf_houses": 10.75,
    "asc_lon": 3.7276,
    "mc_lon": 273.8471,
    "city": "Charadai",
    "country": "Argentina",
    "city_lat": -27.63333,
    "city_lon": -59.9,
    "distance_km": 17.8,
    "country_code": "AR"
  },
  {
    "subject_id": "308660",
    "relocation_latitude": -25.0,
    "relocation_longitude": -60.0,
    "hf_total_v3": 19.8103,
    "hf_aspects": 14.6311,
    "hf_angles": 3.257,
    "hf_houses": 10.75,
    "asc_lon": 3.8005,
    "mc_lon": 273.8471,
    "city": "Estanislao del Campo",
    "country": "Argentina",
    "city_lat": -25.05504,
    "city_lon": -60.09218,
    "distance_km": 11.12,
    "country_code": "AR"
  }
]